{
  "metadata": {
    "version": "2.0",
    "created": "2026-02-15",
    "source": "PUB Official Hotspots + Flood-Prone Areas (Nov 2025)",
    "total_hotspots": 60,
    "zones": {
      "central": 30,
      "east": 13,
      "west": 7,
      "north": 10
    },
    "composition": {
      "pub_hotspots": 24,
      "pub_flood_prone": 36
    }
  },
  "hotspots": [
    {
      "id": 1,
      "name": "Junction of Ang Mo Kio Avenue 3 and Ang Mo Kio Avenue 8",
      "lat": 1.3718,
      "lng": 103.8695,
      "description": "PUB-designated flood hotspot with recurring ponding risk",
      "zone": "north",
      "severity_history": "high",
      "source": "PUB",
      "category": "hotspot"
    },
    {
      "id": 2,
      "name": "Junction of Bedok North Avenue 4 and Upper Changi Road",
      "lat": 1.3345,
      "lng": 103.9507,
      "description": "PUB-designated flood hotspot with recurring ponding risk",
      "zone": "east",
      "severity_history": "high",
      "source": "PUB",
      "category": "hotspot"
    },
    {
      "id": 3,
      "name": "Bukit Timah Road (Wilby Road to Blackmore Drive)",
      "lat": 1.328,
      "lng": 103.8035,
      "description": "PUB-designated flood hotspot with recurring ponding risk",
      "zone": "central",
      "severity_history": "high",
      "source": "PUB",
      "category": "hotspot"
    },
    {
      "id": 4,
      "name": "Junction of Cavenagh Road and Kramat Lane",
      "lat": 1.3121,
      "lng": 103.8451,
      "description": "PUB-designated flood hotspot with recurring ponding risk",
      "zone": "central",
      "severity_history": "high",
      "source": "PUB",
      "category": "hotspot"
    },
    {
      "id": 5,
      "name": "Junction of Craig Road and Tanjong Pagar Road",
      "lat": 1.2785,
      "lng": 103.8421,
      "description": "PUB-designated flood hotspot with recurring ponding risk",
      "zone": "central",
      "severity_history": "high",
      "source": "PUB",
      "category": "hotspot"
    },
    {
      "id": 6,
      "name": "Dunearn Road (Rifle Range to Binjai Park)",
      "lat": 1.3355,
      "lng": 103.785,
      "description": "PUB-designated flood hotspot with recurring ponding risk",
      "zone": "central",
      "severity_history": "high",
      "source": "PUB",
      "category": "hotspot"
    },
    {
      "id": 7,
      "name": "Dunearn Road (Hillcrest Road to Watten Estate Road)",
      "lat": 1.331,
      "lng": 103.7987,
      "description": "PUB-designated flood hotspot with recurring ponding risk",
      "zone": "central",
      "severity_history": "high",
      "source": "PUB",
      "category": "hotspot"
    },
    {
      "id": 8,
      "name": "Eng Neo Avenue (Vanda Link to Dunearn Road)",
      "lat": 1.338,
      "lng": 103.8013,
      "description": "PUB-designated flood hotspot with recurring ponding risk",
      "zone": "central",
      "severity_history": "high",
      "source": "PUB",
      "category": "hotspot"
    },
    {
      "id": 9,
      "name": "Enterprise Road (Wan Lee Road to Jalan Boon Lay)",
      "lat": 1.333,
      "lng": 103.7073,
      "description": "PUB-designated flood hotspot with recurring ponding risk",
      "zone": "west",
      "severity_history": "high",
      "source": "PUB",
      "category": "hotspot"
    },
    {
      "id": 10,
      "name": "Hougang Avenue 8 (Hougang Street 52 to Hougang Avenue 6)",
      "lat": 1.3768,
      "lng": 103.8951,
      "description": "PUB-designated flood hotspot with recurring ponding risk",
      "zone": "north",
      "severity_history": "high",
      "source": "PUB",
      "category": "hotspot"
    },
    {
      "id": 11,
      "name": "Jalan Boon Lay (International Road to Enterprise Road)",
      "lat": 1.3243,
      "lng": 103.7096,
      "description": "PUB-designated flood hotspot with recurring ponding risk",
      "zone": "west",
      "severity_history": "high",
      "source": "PUB",
      "category": "hotspot"
    },
    {
      "id": 12,
      "name": "Jalan Nipah",
      "lat": 1.326,
      "lng": 103.9525,
      "description": "PUB-designated flood hotspot with recurring ponding risk",
      "zone": "east",
      "severity_history": "high",
      "source": "PUB",
      "category": "hotspot"
    },
    {
      "id": 13,
      "name": "Jurong East Street 32",
      "lat": 1.3479,
      "lng": 103.7317,
      "description": "PUB-designated flood hotspot with recurring ponding risk",
      "zone": "west",
      "severity_history": "high",
      "source": "PUB",
      "category": "hotspot"
    },
    {
      "id": 14,
      "name": "Junction of Kampong Ampat and Macpherson Road",
      "lat": 1.3368,
      "lng": 103.8825,
      "description": "PUB-designated flood hotspot with recurring ponding risk",
      "zone": "central",
      "severity_history": "high",
      "source": "PUB",
      "category": "hotspot"
    },
    {
      "id": 15,
      "name": "Junction of Lorong 1 and Lorong 2 Toa Payoh",
      "lat": 1.3409,
      "lng": 103.847,
      "description": "PUB-designated flood hotspot with recurring ponding risk",
      "zone": "central",
      "severity_history": "high",
      "source": "PUB",
      "category": "hotspot"
    },
    {
      "id": 16,
      "name": "Lorong Gambir (Lorong Penchalak to Gambir Walk)",
      "lat": 1.3454,
      "lng": 103.8761,
      "description": "PUB-designated flood hotspot with recurring ponding risk",
      "zone": "central",
      "severity_history": "high",
      "source": "PUB",
      "category": "hotspot"
    },
    {
      "id": 17,
      "name": "Junction of Lorong Kismis and Kismis Place",
      "lat": 1.336,
      "lng": 103.7671,
      "description": "PUB-designated flood hotspot with recurring ponding risk",
      "zone": "central",
      "severity_history": "high",
      "source": "PUB",
      "category": "hotspot"
    },
    {
      "id": 18,
      "name": "Punggol Way (slip road to TPE)",
      "lat": 1.4007,
      "lng": 103.8963,
      "description": "PUB-designated flood hotspot with recurring ponding risk",
      "zone": "north",
      "severity_history": "high",
      "source": "PUB",
      "category": "hotspot"
    },
    {
      "id": 19,
      "name": "Seletar North Link (Punggol Barat Island)",
      "lat": 1.4275,
      "lng": 103.8804,
      "description": "PUB-designated flood hotspot with recurring ponding risk",
      "zone": "north",
      "severity_history": "high",
      "source": "PUB",
      "category": "hotspot"
    },
    {
      "id": 20,
      "name": "Upper Changi Road East (Bedok Road to Simei Avenue)",
      "lat": 1.3286,
      "lng": 103.9496,
      "description": "PUB-designated flood hotspot with recurring ponding risk",
      "zone": "east",
      "severity_history": "high",
      "source": "PUB",
      "category": "hotspot"
    },
    {
      "id": 21,
      "name": "Service Road off Upper Paya Lebar Road (near Lim Teck Boo Road)",
      "lat": 1.3342,
      "lng": 103.8887,
      "description": "PUB-designated flood hotspot with recurring ponding risk",
      "zone": "central",
      "severity_history": "high",
      "source": "PUB",
      "category": "hotspot"
    },
    {
      "id": 22,
      "name": "Yishun Avenue 5 (slip road to Yishun Avenue 2)",
      "lat": 1.4304,
      "lng": 103.8313,
      "description": "PUB-designated flood hotspot with recurring ponding risk",
      "zone": "north",
      "severity_history": "high",
      "source": "PUB",
      "category": "hotspot"
    },
    {
      "id": 23,
      "name": "Junction of Yishun Avenue 7 and Yishun Street 22",
      "lat": 1.4353,
      "lng": 103.8259,
      "description": "PUB-designated flood hotspot with recurring ponding risk",
      "zone": "north",
      "severity_history": "high",
      "source": "PUB",
      "category": "hotspot"
    },
    {
      "id": 24,
      "name": "Kings Road (Prince Road to Lutheran Road)",
      "lat": 1.3155,
      "lng": 103.841,
      "description": "PUB-designated flood hotspot with recurring ponding risk",
      "zone": "central",
      "severity_history": "high",
      "source": "PUB",
      "category": "hotspot"
    },
    {
      "id": 25,
      "name": "Prince Philip Avenue / Jervois Road",
      "lat": 1.2914,
      "lng": 103.8254,
      "description": "PUB-identified flood-prone area with historical flooding records",
      "zone": "central",
      "severity_history": "moderate",
      "source": "PUB",
      "category": "flood_prone"
    },
    {
      "id": 26,
      "name": "Admiralty Road West (Sembawang Drive to Dock Road West)",
      "lat": 1.4633,
      "lng": 103.8164,
      "description": "PUB-identified flood-prone area with historical flooding records",
      "zone": "north",
      "severity_history": "moderate",
      "source": "PUB",
      "category": "flood_prone"
    },
    {
      "id": 27,
      "name": "Beach Road / Java Road (St Johns HQ)",
      "lat": 1.3012,
      "lng": 103.8619,
      "description": "PUB-identified flood-prone area with historical flooding records",
      "zone": "central",
      "severity_history": "moderate",
      "source": "PUB",
      "category": "flood_prone"
    },
    {
      "id": 28,
      "name": "Bedok South Road (slip road to Bedok South Avenue 1)",
      "lat": 1.3177,
      "lng": 103.9484,
      "description": "PUB-identified flood-prone area with historical flooding records",
      "zone": "east",
      "severity_history": "moderate",
      "source": "PUB",
      "category": "flood_prone"
    },
    {
      "id": 29,
      "name": "Service road off Changi Road (near Chin Cheng Avenue)",
      "lat": 1.3197,
      "lng": 103.9145,
      "description": "PUB-identified flood-prone area with historical flooding records",
      "zone": "east",
      "severity_history": "moderate",
      "source": "PUB",
      "category": "flood_prone"
    },
    {
      "id": 30,
      "name": "Junction of Commonwealth Drive and Commonwealth Avenue",
      "lat": 1.2958,
      "lng": 103.7992,
      "description": "PUB-identified flood-prone area with historical flooding records",
      "zone": "central",
      "severity_history": "moderate",
      "source": "PUB",
      "category": "flood_prone"
    },
    {
      "id": 31,
      "name": "CTE (slip road to Moulmein Road)",
      "lat": 1.319,
      "lng": 103.8489,
      "description": "PUB-identified flood-prone area with historical flooding records",
      "zone": "central",
      "severity_history": "moderate",
      "source": "PUB",
      "category": "flood_prone"
    },
    {
      "id": 32,
      "name": "Derbyshire Road / Cambridge Road / Farrer Park Field",
      "lat": 1.3167,
      "lng": 103.8456,
      "description": "PUB-identified flood-prone area with historical flooding records",
      "zone": "central",
      "severity_history": "moderate",
      "source": "PUB",
      "category": "flood_prone"
    },
    {
      "id": 33,
      "name": "Hong Kah Area",
      "lat": 1.3499,
      "lng": 103.7211,
      "description": "PUB-identified flood-prone area with historical flooding records",
      "zone": "west",
      "severity_history": "moderate",
      "source": "PUB",
      "category": "flood_prone"
    },
    {
      "id": 34,
      "name": "Indus Road (Havelock Road to Ganges Avenue)",
      "lat": 1.2902,
      "lng": 103.8296,
      "description": "PUB-identified flood-prone area with historical flooding records",
      "zone": "central",
      "severity_history": "moderate",
      "source": "PUB",
      "category": "flood_prone"
    },
    {
      "id": 35,
      "name": "Jalan Benaan Kapal",
      "lat": 1.3036,
      "lng": 103.8816,
      "description": "PUB-identified flood-prone area with historical flooding records",
      "zone": "central",
      "severity_history": "moderate",
      "source": "PUB",
      "category": "flood_prone"
    },
    {
      "id": 36,
      "name": "Jalan Besar Area",
      "lat": 1.3052,
      "lng": 103.8553,
      "description": "PUB-identified flood-prone area with historical flooding records",
      "zone": "central",
      "severity_history": "moderate",
      "source": "PUB",
      "category": "flood_prone"
    },
    {
      "id": 37,
      "name": "Jalan Mashor",
      "lat": 1.321,
      "lng": 103.7132,
      "description": "PUB-identified flood-prone area with historical flooding records",
      "zone": "west",
      "severity_history": "moderate",
      "source": "PUB",
      "category": "flood_prone"
    },
    {
      "id": 38,
      "name": "Jalan Mat Jambol",
      "lat": 1.2801,
      "lng": 103.7908,
      "description": "PUB-identified flood-prone area with historical flooding records",
      "zone": "central",
      "severity_history": "moderate",
      "source": "PUB",
      "category": "flood_prone"
    },
    {
      "id": 39,
      "name": "Jalan Taman",
      "lat": 1.3253,
      "lng": 103.8653,
      "description": "PUB-identified flood-prone area with historical flooding records",
      "zone": "central",
      "severity_history": "moderate",
      "source": "PUB",
      "category": "flood_prone"
    },
    {
      "id": 40,
      "name": "King Georges Avenue (PA HQ)",
      "lat": 1.3071,
      "lng": 103.8589,
      "description": "PUB-identified flood-prone area with historical flooding records",
      "zone": "central",
      "severity_history": "moderate",
      "source": "PUB",
      "category": "flood_prone"
    },
    {
      "id": 41,
      "name": "Langsat Road Area (Lorong 102 to Lorong 106 Changi)",
      "lat": 1.3159,
      "lng": 103.9009,
      "description": "PUB-identified flood-prone area with historical flooding records",
      "zone": "east",
      "severity_history": "moderate",
      "source": "PUB",
      "category": "flood_prone"
    },
    {
      "id": 42,
      "name": "Lorong Buangkok Area",
      "lat": 1.3831,
      "lng": 103.8795,
      "description": "PUB-identified flood-prone area with historical flooding records",
      "zone": "north",
      "severity_history": "moderate",
      "source": "PUB",
      "category": "flood_prone"
    },
    {
      "id": 43,
      "name": "Lorong H Telok Kurau (near canal)",
      "lat": 1.3155,
      "lng": 103.9069,
      "description": "PUB-identified flood-prone area with historical flooding records",
      "zone": "east",
      "severity_history": "moderate",
      "source": "PUB",
      "category": "flood_prone"
    },
    {
      "id": 44,
      "name": "Alexandra Road / Lower Delta Road",
      "lat": 1.2862,
      "lng": 103.8092,
      "description": "PUB-identified flood-prone area with historical flooding records",
      "zone": "central",
      "severity_history": "moderate",
      "source": "PUB",
      "category": "flood_prone"
    },
    {
      "id": 45,
      "name": "Margaret Drive / Tanglin Road",
      "lat": 1.2942,
      "lng": 103.8159,
      "description": "PUB-identified flood-prone area with historical flooding records",
      "zone": "central",
      "severity_history": "moderate",
      "source": "PUB",
      "category": "flood_prone"
    },
    {
      "id": 46,
      "name": "Meyer Road Area (Fort Road to Broadrick Road)",
      "lat": 1.2971,
      "lng": 103.8911,
      "description": "PUB-identified flood-prone area with historical flooding records",
      "zone": "east",
      "severity_history": "moderate",
      "source": "PUB",
      "category": "flood_prone"
    },
    {
      "id": 47,
      "name": "Mimosa Walk (near canal)",
      "lat": 1.382,
      "lng": 103.8606,
      "description": "PUB-identified flood-prone area with historical flooding records",
      "zone": "north",
      "severity_history": "moderate",
      "source": "PUB",
      "category": "flood_prone"
    },
    {
      "id": 48,
      "name": "Changi Camp (Changi Village Road / Farnborough Road)",
      "lat": 1.3877,
      "lng": 103.9873,
      "description": "PUB-identified flood-prone area with historical flooding records",
      "zone": "east",
      "severity_history": "moderate",
      "source": "PUB",
      "category": "flood_prone"
    },
    {
      "id": 49,
      "name": "Service road off Mountbatten Road (near Jalan Seaview)",
      "lat": 1.303,
      "lng": 103.9004,
      "description": "PUB-identified flood-prone area with historical flooding records",
      "zone": "east",
      "severity_history": "moderate",
      "source": "PUB",
      "category": "flood_prone"
    },
    {
      "id": 50,
      "name": "Junction of Neo Pee Teck Lane and Pasir Panjang Road",
      "lat": 1.2922,
      "lng": 103.7687,
      "description": "PUB-identified flood-prone area with historical flooding records",
      "zone": "west",
      "severity_history": "moderate",
      "source": "PUB",
      "category": "flood_prone"
    },
    {
      "id": 51,
      "name": "New Upper Changi Road / Tanah Merah Kechil Avenue",
      "lat": 1.328,
      "lng": 103.9491,
      "description": "PUB-identified flood-prone area with historical flooding records",
      "zone": "east",
      "severity_history": "moderate",
      "source": "PUB",
      "category": "flood_prone"
    },
    {
      "id": 52,
      "name": "Rose Lane",
      "lat": 1.3101,
      "lng": 103.8935,
      "description": "PUB-identified flood-prone area with historical flooding records",
      "zone": "east",
      "severity_history": "moderate",
      "source": "PUB",
      "category": "flood_prone"
    },
    {
      "id": 53,
      "name": "Second Chin Bee Road",
      "lat": 1.3306,
      "lng": 103.7148,
      "description": "PUB-identified flood-prone area with historical flooding records",
      "zone": "west",
      "severity_history": "moderate",
      "source": "PUB",
      "category": "flood_prone"
    },
    {
      "id": 54,
      "name": "Sennett Estate (Siang Kuang / Puay Hee / Wan Tho area)",
      "lat": 1.3295,
      "lng": 103.8717,
      "description": "PUB-identified flood-prone area with historical flooding records",
      "zone": "central",
      "severity_history": "moderate",
      "source": "PUB",
      "category": "flood_prone"
    },
    {
      "id": 55,
      "name": "Service road off Tampines Road (near Jalan Teliti)",
      "lat": 1.3645,
      "lng": 103.9315,
      "description": "PUB-identified flood-prone area with historical flooding records",
      "zone": "north",
      "severity_history": "moderate",
      "source": "PUB",
      "category": "flood_prone"
    },
    {
      "id": 56,
      "name": "Junction of Stevens Road and Balmoral Road",
      "lat": 1.3179,
      "lng": 103.8259,
      "description": "PUB-identified flood-prone area with historical flooding records",
      "zone": "central",
      "severity_history": "moderate",
      "source": "PUB",
      "category": "flood_prone"
    },
    {
      "id": 57,
      "name": "South Bridge Road / Upper Hokien Street / Upper Pickering Street",
      "lat": 1.2848,
      "lng": 103.8468,
      "description": "PUB-identified flood-prone area with historical flooding records",
      "zone": "central",
      "severity_history": "moderate",
      "source": "PUB",
      "category": "flood_prone"
    },
    {
      "id": 58,
      "name": "Upper East Coast Road (near Parbury Avenue)",
      "lat": 1.3182,
      "lng": 103.9507,
      "description": "PUB-identified flood-prone area with historical flooding records",
      "zone": "east",
      "severity_history": "moderate",
      "source": "PUB",
      "category": "flood_prone"
    },
    {
      "id": 59,
      "name": "Waterloo Street / Bencoolen Street / Prinsep Street",
      "lat": 1.3008,
      "lng": 103.8527,
      "description": "PUB-identified flood-prone area with historical flooding records",
      "zone": "central",
      "severity_history": "moderate",
      "source": "PUB",
      "category": "flood_prone"
    },
    {
      "id": 60,
      "name": "Zion Road (Former Boys Brigade HQ)",
      "lat": 1.2953,
      "lng": 103.8305,
      "description": "PUB-identified flood-prone area with historical flooding records",
      "zone": "central",
      "severity_history": "moderate",
      "source": "PUB",
      "category": "flood_prone"
    }
  ]
}